$GNGGA,104345.000,1256.1804,N,07737.3707,E,2,05,1.6,789.6,M,-85.5,M,,0000*6B
$GNGLL,1256.1804,N,07737.3707,E,104345.000,A,D*4F
$GPGSA,A,3,28,14,05,12,19,,,,,,,,13.8,1.6,13.7,1*26
$GNRMC,104345.000,A,1256.1804,N,07737.3707,E,000.0,101.6,080421,,,D*71
$GNVTG,101.6,T,,M,000.0,N,000.0,K,D*10
$GNZDA,104345.000,08,04,2021,00,00*42
$GNGGA,104346.000,1256.1804,N,07737.3707,E,2,05,1.6,789.6,M,-85.5,M,,0000*68
$GNGLL,1256.1804,N,07737.3707,E,104346.000,A,D*4C
$GPGSA,A,3,28,14,05,12,19,,,,,,,,13.8,1.6,13.7,1*26
$GPGSV,2,1,08,06,45,016,,28,32,116,36,05,26,187,24,19,26,035,24,1*62
$GPGSV,2,2,08,14,25,122,35,12,21,330,30,45,00,000,43,41,00,000,38,1*62
$GNRMC,104346.000,A,1256.1804,N,07737.3707,E,000.0,101.6,080421,,,D*72
$GNVTG,101.6,T,,M,000.0,N,000.0,K,D*10
$GNZDA,104346.000,08,04,2021,00,00*41
$GNGGA,104347.000,1256.1804,N,07737.3707,E,2,05,1.6,789.6,M,-85.5,M,,0000*69
$GNGLL,1256.1804,N,07737.3707,E,104347.000,A,D*4D
$GPGSA,A,3,28,14,05,12,19,,,,,,,,13.8,1.6,13.7,1*26
$GNRMC,104347.000,A,1256.1804,N,07737.3707,E,000.0,101.6,080421,,,D*73
$GNVTG,101.6,T,,M,000.0,N,000.0,K,D*10
$GNZDA,104347.000,08,04,2021,00,00*40
$GNGGA,104348.000,1256.1803,N,07737.3708,E,2,05,1.6,791.4,M,-85.5,M,,0000*65
$GNGLL,1256.1803,N,07737.3708,E,104348.000,A,D*4A
$GPGSA,A,3,28,14,05,12,19,,,,,,,,13.8,1.6,13.7,1*26
$GNRMC,104348.000,A,1256.1803,N,07737.3708,E,000.0,101.6,080421,,,D*74
$GNVTG,101.6,T,,M,000.0,N,000.0,K,D*10
$GNZDA,104348.000,08,04,2021,00,00*4F
$GNGGA,104349.000,1256.1803,N,07737.3708,E,1,05,1.6,791.4,M,-85.5,M,,0000*67
$GNGLL,1256.1803,N,07737.3708,E,104349.000,A,A*4E
$GPGSA,A,3,28,14,05,12,19,,,,,,,,13.8,1.6,13.7,1*26
$GPGSV,2,1,08,06,45,016,,28,32,116,35,05,26,187,24,19,26,035,23,1*66
$GPGSV,2,2,08,14,25,122,33,12,21,330,27,45,00,000,41,41,00,000,36,1*6E
$GNRMC,104349.000,A,1256.1803,N,07737.3708,E,000.0,101.6,080421,,,A*70
$GNVTG,101.6,T,,M,000.0,N,000.0,K,A*15
$GNZDA,104349.000,08,04,2021,00,00*4E
$GNGGA,104350.000,1256.1803,N,07737.3708,E,1,05,1.6,791.4,M,-85.5,M,,0000*6F
$GNGLL,1256.1803,N,07737.3708,E,104350.000,A,A*46
$GPGSA,A,3,28,14,05,12,19,,,,,,,,13.8,1.6,13.7,1*26
$GNRMC,104350.000,A,1256.1803,N,07737.3708,E,000.0,101.6,080421,,,A*78
$GNVTG,101.6,T,,M,000.0,N,000.0,K,A*15
$GNZDA,104350.000,08,04,2021,00,00*46
$GNGGA,104351.000,1256.1803,N,07737.3708,E,2,05,1.6,791.4,M,-85.5,M,,0000*6D
$GNGLL,1256.1803,N,07737.3708,E,104351.000,A,D*42
$GPGSA,A,3,28,14,05,12,19,,,,,,,,13.8,1.6,13.7,1*26
$GNRMC,104351.000,A,1256.1803,N,07737.3708,E,000.0,101.6,080421,,,D*7C
$GNVTG,101.6,T,,M,000.0,N,000.0,K,D*10
$GNZDA,104351.000,08,04,2021,00,00*47
$GNGGA,104352.000,1256.1803,N,07737.3708,E,1,05,1.6,791.4,M,-85.5,M,,0000*6D
$GNGLL,1256.1803,N,07737.3708,E,104352.000,A,A*44
$GPGSA,A,3,28,14,05,12,19,,,,,,,,13.8,1.6,13.7,1*26
$GPGSV,2,1,08,06,45,016,,28,32,116,37,05,26,187,25,19,26,035,22,1*64
$GPGSV,2,2,08,14,25,122,35,12,21,330,29,45,00,000,43,41,00,000,38,1*6A
$GNRMC,104352.000,A,1256.1803,N,07737.3708,E,000.0,101.6,080421,,,A*7A
$GNVTG,101.6,T,,M,000.0,N,000.0,K,A*15
$GNZDA,104352.000,08,04,2021,00,00*44
$GNGGA,104353.000,1256.1803,N,07737.3708,E,1,05,1.6,791.4,M,-85.5,M,,0000*6C
$GNGLL,1256.1803,N,07737.3708,E,104353.000,A,A*45
$GPGSA,A,3,28,14,05,12,19,,,,,,,,13.8,1.6,13.7,1*26
$GNRMC,104353.000,A,1256.1803,N,07737.3708,E,000.0,101.6,080421,,,A*7B
$GNVTG,101.6,T,,M,000.0,N,000.0,K,A*15
$GNZDA,104353.000,08,04,2021,00,00*45
$GNGGA,104354.000,1256.1803,N,07737.3708,E,1,05,1.6,791.4,M,-85.5,M,,0000*6B
$GNGLL,1256.1803,N,07737.3708,E,104354.000,A,A*42
$GPGSA,A,3,28,14,05,12,19,,,,,,,,13.8,1.6,13.7,1*26
$GNRMC,104354.000,A,1256.1803,N,07737.3708,E,000.0,101.6,080421,,,A*7C
$GNVTG,101.6,T,,M,000.0,N,000.0,K,A*15
$GNZDA,104354.000,08,04,2021,00,00*42
$GNGGA,104355.000,1256.1795,N,07737.3709,E,1,05,1.5,803.3,M,-85.5,M,,0000*6B
$GNGLL,1256.1795,N,07737.3709,E,104355.000,A,A*42
$GPGSA,A,3,28,14,05,12,19,,,,,,,,13.8,1.5,13.7,1*25
$GPGSV,2,1,08,06,45,016,,28,32,116,36,05,26,187,24,19,26,035,21,1*67
$GPGSV,2,2,08,14,25,122,34,12,21,330,30,45,00,000,41,41,00,000,36,1*6F
$GNRMC,104355.000,A,1256.1795,N,07737.3709,E,000.0,101.6,080421,,,A*7C
$GNVTG,101.6,T,,M,000.0,N,000.0,K,A*15
$GNZDA,104355.000,08,04,2021,00,00*43
$GNGGA,104356.000,1256.1795,N,07737.3709,E,1,04,1.7,803.3,M,-85.5,M,,0000*6B
$GNGLL,1256.1795,N,07737.3709,E,104356.000,A,A*41
$GPGSA,A,3,28,14,05,12,,,,,,,,,13.8,1.7,13.7,1*2F
$GNRMC,104356.000,A,1256.1795,N,07737.3709,E,000.0,101.6,080421,,,A*7F
$GNVTG,101.6,T,,M,000.0,N,000.0,K,A*15
$GNZDA,104356.000,08,04,2021,00,00*40
$GNGGA,104357.000,1256.1795,N,07737.3709,E,2,04,1.7,803.3,M,-85.5,M,,0000*69
$GNGLL,1256.1795,N,07737.3709,E,104357.000,A,D*45
$GPGSA,A,3,28,14,05,12,,,,,,,,,13.8,1.7,13.7,1*2F
$GNRMC,104357.000,A,1256.1795,N,07737.3709,E,000.0,101.6,080421,,,D*7B
$GNVTG,101.6,T,,M,000.0,N,000.0,K,D*10
$GNZDA,104357.000,08,04,2021,00,00*41
$GNGGA,104358.000,1256.1795,N,07737.3709,E,1,05,1.5,803.3,M,-85.5,M,,0000*66
$GNGLL,1256.1795,N,07737.3709,E,104358.000,A,A*4F
$GPGSA,A,3,28,14,05,12,19,,,,,,,,13.8,1.5,13.7,1*25
$GPGSV,2,1,08,06,45,016,,28,32,116,36,05,26,187,25,19,26,035,19,1*6D
$GPGSV,2,2,08,14,25,122,35,12,21,330,30,45,00,000,42,41,00,000,37,1*6C
$GNRMC,104358.000,A,1256.1795,N,07737.3709,E,000.0,101.6,080421,,,A*71
$GNVTG,101.6,T,,M,000.0,N,000.0,K,A*15
$GNZDA,104358.000,08,04,2021,00,00*4E
$GNGGA,104359.000,1256.1795,N,07737.3709,E,2,05,1.5,803.3,M,-85.5,M,,0000*64
$GNGLL,1256.1795,N,07737.3709,E,104359.000,A,D*4B
$GPGSA,A,3,28,14,05,12,19,,,,,,,,13.8,1.5,13.7,1*25
$GNRMC,104359.000,A,1256.1795,N,07737.3709,E,000.0,101.6,080421,,,D*75
$GNVTG,101.6,T,,M,000.0,N,000.0,K,D*10
$GNZDA,104359.000,08,04,2021,00,00*4F
$GNGGA,104400.000,1256.1795,N,07737.3709,E,1,04,1.7,803.3,M,-85.5,M,,0000*6F
$GNGLL,1256.1795,N,07737.3709,E,104400.000,A,A*45
$GPGSA,A,3,28,14,05,12,,,,,,,,,13.8,1.7,13.7,1*2F
$GNRMC,104400.000,A,1256.1795,N,07737.3709,E,000.0,101.6,080421,,,A*7B
$GNVTG,101.6,T,,M,000.0,N,000.0,K,A*15
$GNZDA,104400.000,08,04,2021,00,00*44
$GNGGA,104401.000,1256.1795,N,07737.3709,E,1,04,1.7,803.3,M,-85.5,M,,0000*6E
$GNGLL,1256.1795,N,07737.3709,E,104401.000,A,A*44
$GPGSA,A,3,28,14,05,12,,,,,,,,,13.8,1.7,13.7,1*2F
$GPGSV,2,1,08,06,45,016,,28,32,116,38,05,26,187,25,19,26,035,15,1*6F
$GPGSV,2,2,08,14,25,122,37,12,21,330,30,45,00,000,43,41,00,000,38,1*60
$GNRMC,104401.000,A,1256.1795,N,07737.3709,E,000.0,101.6,080421,,,A*7A
$GNVTG,101.6,T,,M,000.0,N,000.0,K,A*15
$GNZDA,104401.000,08,04,2021,00,00*45
$GNGGA,104402.000,1256.1795,N,07737.3709,E,2,04,1.7,803.3,M,-85.5,M,,0000*6E
$GNGLL,1256.1795,N,07737.3709,E,104402.000,A,D*42
$GPGSA,A,3,28,14,05,12,,,,,,,,,13.8,1.7,13.7,1*2F
$GNRMC,104402.000,A,1256.1795,N,07737.3709,E,000.0,101.6,080421,,,D*7C
$GNVTG,101.6,T,,M,000.0,N,000.0,K,D*10
$GNZDA,104402.000,08,04,2021,00,00*46
$GNGGA,104403.000,1256.1795,N,07737.3709,E,2,04,1.7,803.3,M,-85.5,M,,0000*6F
$GNGLL,1256.1795,N,07737.3709,E,104403.000,A,D*43
$GPGSA,A,3,28,14,05,12,,,,,,,,,13.8,1.7,13.7,1*2F
$GNRMC,104403.000,A,1256.1795,N,07737.3709,E,000.0,101.6,080421,,,D*7D
$GNVTG,101.6,T,,M,000.0,N,000.0,K,D*10
$GNZDA,104403.000,08,04,2021,00,00*47
$GNGGA,104404.000,1256.1795,N,07737.3709,E,2,04,1.7,803.3,M,-85.5,M,,0000*68
$GNGLL,1256.1795,N,07737.3709,E,104404.000,A,D*44
$GPGSA,A,3,28,14,05,12,,,,,,,,,13.8,1.7,13.7,1*2F
$GPGSV,2,1,08,06,45,016,,28,32,116,39,05,26,187,25,19,26,035,14,1*6F
$GPGSV,2,2,08,14,25,122,37,12,21,330,30,45,00,000,43,41,00,000,38,1*60
$GNRMC,104404.000,A,1256.1795,N,07737.3709,E,000.0,101.6,080421,,,D*7A
$GNVTG,101.6,T,,M,000.0,N,000.0,K,D*10
$GNZDA,104404.000,08,04,2021,00,00*40
$GNGGA,104405.000,1256.1795,N,07737.3709,E,2,04,1.7,803.3,M,-85.5,M,,0000*69
$GNGLL,1256.1795,N,07737.3709,E,104405.000,A,D*45
$GPGSA,A,3,28,14,05,12,,,,,,,,,13.8,1.7,13.7,1*2F
$GNRMC,104405.000,A,1256.1795,N,07737.3709,E,000.0,101.6,080421,,,D*7B
$GNVTG,101.6,T,,M,000.0,N,000.0,K,D*10
$GNZDA,104405.000,08,04,2021,00,00*41
$GNGGA,104406.000,1256.1795,N,07737.3709,E,2,04,1.7,803.3,M,-85.5,M,,0000*6A
$GNGLL,1256.1795,N,07737.3709,E,104406.000,A,D*46
$GPGSA,A,3,28,14,05,12,,,,,,,,,13.8,1.7,13.7,1*2F
$GNRMC,104406.000,A,1256.1795,N,07737.3709,E,000.0,101.6,080421,,,D*78
$GNVTG,101.6,T,,M,000.0,N,000.0,K,D*10
$GNZDA,104406.000,08,04,2021,00,00*42
$GNGGA,104407.000,1256.1795,N,07737.3709,E,2,04,1.7,803.3,M,-85.5,M,,0000*6B
$GNGLL,1256.1795,N,07737.3709,E,104407.000,A,D*47
$GPGSA,A,3,28,14,05,12,,,,,,,,,13.8,1.7,13.7,1*2F
$GPGSV,2,1,08,06,45,016,21,28,32,116,39,05,26,187,25,19,26,035,13,1*6B
$GPGSV,2,2,08,14,25,122,37,12,21,330,30,45,00,000,43,41,00,000,38,1*60
$GNRMC,104407.000,A,1256.1795,N,07737.3709,E,000.0,101.6,080421,,,D*79
$GNVTG,101.6,T,,M,000.0,N,000.0,K,D*10
$GNZDA,104407.000,08,04,2021,00,00*43
$GNGGA,104408.000,1256.1795,N,07737.3709,E,2,04,1.7,803.3,M,-85.5,M,,0000*64
$GNGLL,1256.1795,N,07737.3709,E,104408.000,A,D*48
$GPGSA,A,3,28,14,05,12,,,,,,,,,13.8,1.7,13.7,1*2F
$GNRMC,104408.000,A,1256.1795,N,07737.3709,E,000.0,101.6,080421,,,D*76
$GNVTG,101.6,T,,M,000.0,N,000.0,K,D*10
$GNZDA,104408.000,08,04,2021,00,00*4C
$GNGGA,104409.000,1256.1795,N,07737.3709,E,2,04,1.7,803.3,M,-85.5,M,,0000*65
$GNGLL,1256.1795,N,07737.3709,E,104409.000,A,D*49
$GPGSA,A,3,28,14,05,12,,,,,,,,,13.8,1.7,13.7,1*2F
$GNRMC,104409.000,A,1256.1795,N,07737.3709,E,000.0,101.6,080421,,,D*77
$GNVTG,101.6,T,,M,000.0,N,000.0,K,D*10
$GNZDA,104409.000,08,04,2021,00,00*4D
$GNGGA,104410.000,1256.1795,N,07737.3709,E,1,04,1.7,803.3,M,-85.5,M,,0000*6E
$GNGLL,1256.1795,N,07737.3709,E,104410.000,A,A*44
$GPGSA,A,3,28,14,05,12,,,,,,,,,13.8,1.7,13.7,1*2F
$GPGSV,2,1,08,06,45,016,22,28,32,116,38,05,26,187,25,19,26,036,15,1*6C
$GPGSV,2,2,08,14,25,123,37,12,21,330,28,45,00,000,42,41,00,000,37,1*66
$GNRMC,104410.000,A,1256.1795,N,07737.3709,E,000.0,101.6,080421,,,A*7A
$GNVTG,101.6,T,,M,000.0,N,000.0,K,A*15
$GNZDA,104410.000,08,04,2021,00,00*45
$GNGGA,104411.000,1256.1795,N,07737.3709,E,1,04,1.7,803.3,M,-85.5,M,,0000*6F
$GNGLL,1256.1795,N,07737.3709,E,104411.000,A,A*45
$GPGSA,A,3,28,14,05,12,,,,,,,,,13.8,1.7,13.7,1*2F
$GNRMC,104411.000,A,1256.1795,N,07737.3709,E,000.0,101.6,080421,,,A*7B
$GNVTG,101.6,T,,M,000.0,N,000.0,K,A*15
$GNZDA,104411.000,08,04,2021,00,00*44
$GNGGA,104412.000,1256.1795,N,07737.3709,E,1,04,1.7,803.3,M,-85.5,M,,0000*6C
$GNGLL,1256.1795,N,07737.3709,E,104412.000,A,A*46
$GPGSA,A,3,28,14,05,12,,,,,,,,,13.8,1.7,13.7,1*2F
$GNRMC,104412.000,A,1256.1795,N,07737.3709,E,000.0,101.6,080421,,,A*78
$GNVTG,101.6,T,,M,000.0,N,000.0,K,A*15
$GNZDA,104412.000,08,04,2021,00,00*47
$GNGGA,104413.000,1256.1757,N,07737.3706,E,2,05,1.5,804.7,M,-85.5,M,,0000*6F
$GNGLL,1256.1757,N,07737.3706,E,104413.000,A,D*43
$GPGSA,A,3,28,14,05,12,19,,,,,,,,13.7,1.5,13.7,1*2A
$GPGSV,2,1,08,06,45,016,23,28,32,116,39,05,26,187,25,19,26,036,15,1*6C
$GPGSV,2,2,08,14,25,123,38,12,21,330,27,45,00,000,42,41,00,000,37,1*66
$GNRMC,104413.000,A,1256.1757,N,07737.3706,E,000.0,101.6,080421,,,D*7D
$GNVTG,101.6,T,,M,000.0,N,000.0,K,D*10
$GNZDA,104413.000,08,04,2021,00,00*46
$GNGGA,104414.000,1256.1757,N,07737.3706,E,1,05,1.5,804.7,M,-85.5,M,,0000*6B
$GNGLL,1256.1757,N,07737.3706,E,104414.000,A,A*41
$GPGSA,A,3,28,14,05,12,19,,,,,,,,13.7,1.5,13.6,1*2B
$GNRMC,104414.000,A,1256.1757,N,07737.3706,E,000.0,101.6,080421,,,A*7F
$GNVTG,101.6,T,,M,000.0,N,000.0,K,A*15
$GNZDA,104414.000,08,04,2021,00,00*41
$GNGGA,104415.000,1256.1757,N,07737.3706,E,1,05,1.5,804.7,M,-85.5,M,,0000*6A
$GNGLL,1256.1757,N,07737.3706,E,104415.000,A,A*40
$GPGSA,A,3,28,14,05,12,19,,,,,,,,13.7,1.5,13.6,1*2B
$GNRMC,104415.000,A,1256.1757,N,07737.3706,E,000.0,101.6,080421,,,A*7E
$GNVTG,101.6,T,,M,000.0,N,000.0,K,A*15
$GNZDA,104415.000,08,04,2021,00,00*40
$GNGGA,104416.000,1256.1757,N,07737.3706,E,1,05,1.5,804.9,M,-85.5,M,,0000*67
$GNGLL,1256.1757,N,07737.3706,E,104416.000,A,A*43
$GPGSA,A,3,28,14,05,12,19,,,,,,,,13.7,1.5,13.6,1*2B
$GPGSV,2,1,08,06,45,016,24,28,32,116,40,05,26,187,25,19,26,036,18,1*68
$GPGSV,2,2,08,14,25,123,38,12,21,330,28,45,00,000,43,41,00,000,38,1*67
$GNRMC,104416.000,A,1256.1757,N,07737.3706,E,000.0,101.6,080421,,,A*7D
$GNVTG,101.6,T,,M,000.0,N,000.0,K,A*15
$GNZDA,104416.000,08,04,2021,00,00*43
$GNGGA,104417.000,1256.1757,N,07737.3706,E,1,05,1.5,804.9,M,-85.5,M,,0000*66
$GNGLL,1256.1757,N,07737.3706,E,104417.000,A,A*42
$GPGSA,A,3,28,14,05,12,19,,,,,,,,13.7,1.5,13.6,1*2B
$GNRMC,104417.000,A,1256.1757,N,07737.3706,E,000.0,101.6,080421,,,A*7C
$GNVTG,101.6,T,,M,000.0,N,000.0,K,A*15
$GNZDA,104417.000,08,04,2021,00,00*42
$GNGGA,104418.000,1256.1757,N,07737.3706,E,1,05,1.5,804.9,M,-85.5,M,,0000*69
$GNGLL,1256.1757,N,07737.3706,E,104418.000,A,A*4D
$GPGSA,A,3,28,14,05,12,19,,,,,,,,13.7,1.5,13.6,1*2B
$GNRMC,104418.000,A,1256.1757,N,07737.3706,E,000.0,101.6,080421,,,A*73
$GNVTG,101.6,T,,M,000.0,N,000.0,K,A*15
$GNZDA,104418.000,08,04,2021,00,00*4D
$GNGGA,104419.000,1256.1757,N,07737.3706,E,2,04,1.7,804.9,M,-85.5,M,,0000*68
$GNGLL,1256.1757,N,07737.3706,E,104419.000,A,D*49
$GPGSA,A,3,28,14,05,12,,,,,,,,,13.8,1.7,13.7,1*2F
$GPGSV,2,1,08,06,45,016,24,28,32,116,40,05,26,187,25,19,26,036,17,1*67
$GPGSV,2,2,08,14,25,123,38,12,21,330,27,45,00,000,43,41,00,000,38,1*68
$GNRMC,104419.000,A,1256.1757,N,07737.3706,E,000.0,101.6,080421,,,D*77
$GNVTG,101.6,T,,M,000.0,N,000.0,K,D*10
$GNZDA,104419.000,08,04,2021,00,00*4C
$GNGGA,104420.000,1256.1757,N,07737.3706,E,2,05,1.5,804.9,M,-85.5,M,,0000*61
$GNGLL,1256.1757,N,07737.3706,E,104420.000,A,D*43
$GPGSA,A,3,28,14,05,12,19,,,,,,,,13.7,1.5,13.6,1*2B
$GNRMC,104420.000,A,1256.1757,N,07737.3706,E,000.0,101.6,080421,,,D*7D
$GNVTG,101.6,T,,M,000.0,N,000.0,K,D*10
$GNZDA,104420.000,08,04,2021,00,00*46
$GNGGA,104421.000,1256.1757,N,07737.3706,E,2,05,1.5,804.9,M,-85.5,M,,0000*60
$GNGLL,1256.1757,N,07737.3706,E,104421.000,A,D*42
$GPGSA,A,3,28,14,05,12,19,,,,,,,,13.7,1.5,13.6,1*2B
$GNRMC,104421.000,A,1256.1757,N,07737.3706,E,000.0,101.6,080421,,,D*7C
$GNVTG,101.6,T,,M,000.0,N,000.0,K,D*10
$GNZDA,104421.000,08,04,2021,00,00*47
$GNGGA,104422.000,1256.1757,N,07737.3706,E,2,05,1.5,804.9,M,-85.5,M,,0000*63
$GNGLL,1256.1757,N,07737.3706,E,104422.000,A,D*41
$GPGSA,A,3,28,14,05,12,19,,,,,,,,13.7,1.5,13.6,1*2B
$GPGSV,2,1,08,06,45,016,23,28,32,116,40,05,26,187,25,19,26,036,19,1*6E
$GPGSV,2,2,08,14,25,123,38,12,21,330,27,45,00,000,42,41,00,000,37,1*66
$GNRMC,104422.000,A,1256.1757,N,07737.3706,E,000.0,101.6,080421,,,D*7F
$GNVTG,101.6,T,,M,000.0,N,000.0,K,D*10
$GNZDA,104422.000,08,04,2021,00,00*44
$GNGGA,104423.000,1256.1757,N,07737.3706,E,1,05,1.5,804.9,M,-85.5,M,,0000*61
$GNGLL,1256.1757,N,07737.3706,E,104423.000,A,A*45
$GPGSA,A,3,28,14,05,12,19,,,,,,,,13.7,1.5,13.6,1*2B
$GNRMC,104423.000,A,1256.1757,N,07737.3706,E,000.0,101.6,080421,,,A*7B
$GNVTG,101.6,T,,M,000.0,N,000.0,K,A*15
$GNZDA,104423.000,08,04,2021,00,00*45
$GNGGA,104424.000,1256.1759,N,07737.3705,E,1,05,1.5,805.2,M,-85.5,M,,0000*61
$GNGLL,1256.1759,N,07737.3705,E,104424.000,A,A*4F
$GPGSA,A,3,28,14,05,12,19,,,,,,,,13.7,1.5,13.6,1*2B
$GNRMC,104424.000,A,1256.1759,N,07737.3705,E,000.0,101.6,080421,,,A*71
$GNVTG,101.6,T,,M,000.0,N,000.0,K,A*15
$GNZDA,104424.000,08,04,2021,00,00*42
$GNGGA,104425.000,1256.1759,N,07737.3705,E,1,05,1.5,805.2,M,-85.5,M,,0000*60
$GNGLL,1256.1759,N,07737.3705,E,104425.000,A,A*4E
$GPGSA,A,3,28,14,05,12,19,,,,,,,,13.7,1.5,13.6,1*2B
$GPGSV,2,1,08,06,45,016,23,28,32,116,40,05,26,187,25,19,26,036,21,1*65
$GPGSV,2,2,08,14,25,123,38,12,21,330,26,45,00,000,42,41,00,000,37,1*67
$GNRMC,104425.000,A,1256.1759,N,07737.3705,E,000.0,101.6,080421,,,A*70
$GNVTG,101.6,T,,M,000.0,N,000.0,K,A*15
$GNZDA,104425.000,08,04,2021,00,00*43
$GNGGA,104426.000,1256.1759,N,07737.3705,E,2,05,1.5,805.2,M,-85.5,M,,0000*60
$GNGLL,1256.1759,N,07737.3705,E,104426.000,A,D*48
$GPGSA,A,3,28,14,05,12,19,,,,,,,,13.7,1.5,13.6,1*2B
$GNRMC,104426.000,A,1256.1759,N,07737.3705,E,000.0,101.6,080421,,,D*76
$GNVTG,101.6,T,,M,000.0,N,000.0,K,D*10
$GNZDA,104426.000,08,04,2021,00,00*40
$GNGGA,104427.000,1256.1759,N,07737.3705,E,2,05,1.5,805.2,M,-85.5,M,,0000*61
$GNGLL,1256.1759,N,07737.3705,E,104427.000,A,D*49
$GPGSA,A,3,28,14,05,12,19,,,,,,,,13.7,1.5,13.6,1*2B
$GNRMC,104427.000,A,1256.1759,N,07737.3705,E,000.0,101.6,080421,,,D*77
$GNVTG,101.6,T,,M,000.0,N,000.0,K,D*10
$GNZDA,104427.000,08,04,2021,00,00*41
